,City,Cloudiness,Country,Date,Humidity,Latitude,Longitude,Max Temp,Wind Speed
0,Saskylakh,58,RU,1592502913,62,71.92,114.08,62.72600000000009,2.58
1,Mutoko,79,ZW,1592503208,84,-17.4,32.23,53.45600000000003,2.0
2,Arraial do Cabo,0,BR,1592503208,69,-22.97,-42.03,75.2,8.7
3,Baykit,63,RU,1592503158,62,61.67,96.37,54.788000000000046,1.57
4,Narsaq,75,GL,1592503174,70,60.92,-46.05,42.8,4.6
5,Puerto Ayora,20,EC,1592503209,57,-0.74,-90.35,80.6,10.3
6,Scarborough,99,GB,1592503209,96,54.28,-0.4,57.00200000000008,0.45
7,Kampot,20,KH,1592503209,74,10.62,104.18,84.2,2.6
8,Ushuaia,8,AR,1592502906,80,-54.8,-68.3,33.8,3.17
9,Qaanaaq,0,GL,1592502918,85,77.48,-69.36,35.11400000000003,0.62
10,Tuktoyaktuk,90,CA,1592502924,93,69.45,-133.04,44.6,3.1
11,Guaduas,75,CO,1592503209,67,5.07,-74.59,62.6,2.6
12,Biharamulo,51,TZ,1592503210,62,-2.63,31.31,65.69600000000005,1.85
13,Esim,98,GH,1592502915,82,4.87,-2.24,78.09800000000003,4.14
14,Amurzet,42,RU,1592503210,91,47.7,131.1,49.37000000000006,1.38
15,Bermeo,7,ES,1592503210,59,43.42,-2.72,66.2,2.6
16,Mossamedes,0,AO,1592503210,63,-15.2,12.15,73.04000000000002,3.1
17,Dikson,58,RU,1592503211,93,73.51,80.55,33.26000000000008,7.37
18,New Norfolk,100,AU,1592503153,83,-42.78,147.06,41.0,1.05
19,Rikitea,93,PF,1592503211,84,-23.12,-134.97,76.19000000000003,7.47
20,Mahébourg,75,MU,1592502928,68,-20.41,57.7,71.6,5.7
21,Kargil,18,IN,1592503211,41,34.57,76.1,53.06000000000009,3.22
22,Ol'ga,73,RU,1592503211,90,43.74,135.29,49.17200000000004,2.14
23,Mar del Plata,90,AR,1592503212,87,-38.0,-57.56,57.992,6.7
24,Olafsvik,98,IS,1592503212,75,64.89,-23.71,49.31600000000001,7.93
25,Bethel,40,US,1592502919,69,41.37,-73.41,80.00600000000003,4.6
26,Grand Gaube,100,MU,1592503212,76,-20.01,57.66,69.99800000000002,3.13
27,Albany,4,US,1592503212,49,42.6,-73.97,84.99199999999999,2.65
28,Fortuna,20,US,1592503212,77,40.6,-124.16,68.0,3.1
29,Barrow,1,US,1592503213,75,71.29,-156.79,41.0,3.6
30,Nikolskoye,75,RU,1592503213,82,59.7,30.79,68.0,3.0
31,Wamba,100,NG,1592503213,87,8.93,8.6,74.78600000000007,1.55
32,Lebu,100,CL,1592503213,94,-37.62,-73.65,52.268000000000086,6.47
33,Seredka,0,RU,1592503213,65,58.16,28.19,82.4,1.52
34,Contai,100,IN,1592503213,79,21.78,87.75,84.38000000000005,5.74
35,Mataura,0,NZ,1592503178,83,-46.19,168.86,39.00200000000008,1.34
36,Meulaboh,78,ID,1592503214,83,4.14,96.13,78.78200000000001,2.18
37,Bluff,1,NZ,1592503214,83,-46.6,168.33,39.00200000000008,1.34
38,Lar,99,IN,1592503214,81,26.2,83.97,83.40800000000002,4.13
39,Hithadhoo,94,MV,1592503214,77,-0.6,73.08,84.63200000000002,5.09
40,Jamestown,75,US,1592503046,54,42.1,-79.24,78.80000000000001,3.6
41,Leningradskiy,83,RU,1592503214,62,69.38,178.42,44.00600000000003,2.11
42,Río Gallegos,90,AR,1592503215,93,-51.62,-69.22,39.2,2.6
43,Kodinsk,0,RU,1592503215,65,58.69,99.18,52.934,2.35
44,Caluquembe,0,AO,1592503215,46,-13.78,14.68,55.86800000000009,1.16
45,Heihe,78,CN,1592503215,93,50.24,127.49,53.6,1.0
46,Orotina,75,CR,1592503210,61,9.91,-84.52,80.6,2.1
47,Denpasar,40,ID,1592503216,94,-8.65,115.22,82.4,8.7
48,Saint Anthony,1,US,1592503216,57,45.02,-93.22,78.80000000000001,3.6
49,Vaini,20,TO,1592503216,83,-21.2,-175.2,69.80000000000001,3.6
50,Bambous Virieux,75,MU,1592503129,68,-20.34,57.76,71.6,5.7
51,Zhanakorgan,0,KZ,1592503216,22,43.91,67.25,71.2760000000001,2.28
52,Nanortalik,62,GL,1592503216,78,60.14,-45.24,40.424000000000014,3.33
53,Hobart,100,AU,1592503154,86,-42.88,147.33,41.0,2.1
54,Kandrian,18,PG,1592503217,87,-6.22,149.55,78.20600000000003,4.92
55,Laas,75,IT,1592503217,50,46.62,10.7,57.2,2.1
56,Avarua,32,CK,1592503217,83,-21.21,-159.78,69.80000000000001,3.1
57,College,75,US,1592503134,45,64.86,-147.8,64.4,1.5
58,Hervey Bay,42,AU,1592503217,90,-25.3,152.85,62.99600000000005,5.81
59,Clyde River,75,CA,1592503217,90,70.47,-68.59,33.8,2.6
60,Kloulklubed,75,PW,1592503217,94,7.04,134.26,77.0,4.97
61,Changji,100,CN,1592503218,40,44.02,87.32,71.6,1.0
62,Port Augusta,0,AU,1592503218,58,-32.5,137.77,53.99600000000005,5.1
63,Tiksi,99,RU,1592503218,71,71.69,128.87,52.95200000000008,1.4
64,Butaritari,91,KI,1592503218,62,3.07,172.79,82.97600000000008,1.81
65,Kahului,20,US,1592503218,65,20.89,-156.47,78.80000000000001,5.1
66,Paamiut,82,GL,1592502961,81,61.99,-49.67,38.13800000000005,4.49
67,Juan Lacaze,20,UY,1592503218,77,-34.43,-57.44,62.6,10.3
68,Hermanus,0,ZA,1592503219,71,-34.42,19.23,53.99600000000005,2.58
69,Pahrump,0,US,1592503219,7,36.21,-115.98,87.99800000000002,1.79
70,Beyneu,0,KZ,1592502972,19,45.32,55.2,87.04400000000007,4.43
71,Ancud,75,CL,1592503219,87,-41.87,-73.82,55.004000000000055,5.1
72,Hay River,20,CA,1592503219,52,60.82,-115.8,66.2,6.2
73,Hilo,90,US,1592502933,78,19.73,-155.09,73.4,2.6
74,Pevek,0,RU,1592503219,72,69.7,170.31,40.064000000000036,4.48
75,Karratha,0,AU,1592502956,60,-20.74,116.85,70.08800000000005,2.21
76,Atuona,38,PF,1592503220,78,-9.8,-139.03,79.484,5.39
77,Sur,0,OM,1592503220,75,22.57,59.53,84.93800000000005,5.64
78,Kristiansund,0,NO,1592503220,45,63.11,7.73,68.0,10.3
79,Cabedelo,75,BR,1592503209,74,-6.98,-34.83,82.4,6.7
80,Talnakh,94,RU,1592503221,70,69.49,88.4,44.6,4.0
81,Ciudad del Carmen,40,MX,1592502964,74,18.63,-91.83,84.2,4.1
82,Estevan,90,CA,1592502933,76,49.13,-102.98,50.0,10.3
83,St. George's,40,GD,1592503221,74,12.06,-61.75,86.0,6.2
84,Pacific Grove,1,US,1592503070,52,36.62,-121.92,80.00600000000003,1.5
85,Tsabong,0,BW,1592503221,40,-26.02,22.4,55.32800000000007,3.25
86,Khatanga,83,RU,1592502943,56,71.97,102.5,52.97000000000006,5.33
87,Sakakah,0,SA,1592503221,10,29.97,40.21,95.0,5.7
88,Sinnamary,46,GF,1592502951,95,5.38,-52.95,76.11800000000008,5.12
89,Busselton,18,AU,1592503222,96,-33.65,115.33,44.00600000000003,2.23
90,Lucea,20,JM,1592503222,79,18.45,-78.17,86.0,7.7
91,Benguela,13,AO,1592503222,79,-12.58,13.41,72.46400000000003,1.35
92,Namatanai,12,PG,1592503222,83,-3.67,152.43,79.84400000000008,2.89
93,Port Lincoln,13,AU,1592503117,46,-34.73,135.87,58.85600000000003,10.39
94,Yellowknife,20,CA,1592503218,71,62.46,-114.35,60.998000000000026,6.7
95,Abhā,40,SA,1592503223,60,18.22,42.51,75.2,3.6
96,Kaitangata,25,NZ,1592503223,83,-46.28,169.85,39.541999999999994,3.58
97,Hofn,90,IS,1592503223,81,64.25,-15.21,50.0,3.6
98,Luba,75,GQ,1592503223,100,3.46,8.55,80.6,1.5
99,Laguna,1,US,1592503223,27,38.42,-121.42,86.0,2.1
100,Lavrentiya,8,RU,1592503224,64,65.58,-171.0,48.56000000000009,0.5
101,Ucluelet,75,CA,1592503088,82,48.93,-125.55,60.998000000000026,1.5
102,Smithers,90,CA,1592503176,63,54.78,-127.17,60.8,3.1
103,Torbay,90,CA,1592503224,63,47.67,-52.73,69.00800000000001,7.2
104,Punta Arenas,90,CL,1592503224,86,-53.15,-70.92,39.2,6.7
105,Christchurch,100,NZ,1592503210,93,-43.53,172.63,44.99600000000005,6.2
106,Lompoc,0,US,1592503132,72,34.64,-120.46,69.00800000000001,3.1
107,Moindou,75,NC,1592503224,88,-21.69,165.68,64.4,2.03
108,Saint Paul Harbor,90,US,1592503225,81,57.79,-152.41,50.0,5.7
109,Lethem,52,GY,1592503225,66,3.38,-59.8,86.48600000000008,1.44
110,Fes,75,MA,1592503037,56,34.04,-5.0,73.4,8.2
111,Upernavik,0,GL,1592503114,82,72.79,-56.15,36.122000000000035,4.42
112,Bredasdorp,0,ZA,1592503225,87,-34.53,20.04,53.6,2.22
113,Cherepet',6,RU,1592503225,65,54.12,36.38,77.0,1.93
114,Pangai,40,TO,1592503225,69,-19.8,-174.35,75.2,8.7
115,Telde,20,ES,1592502983,65,27.99,-15.42,77.0,11.8
116,Hernani,20,ES,1592503226,68,43.27,-1.98,66.2,2.1
117,Kupang,49,ID,1592503226,82,-10.17,123.58,76.334,5.51
118,Chapais,1,CA,1592503226,27,49.78,-74.85,87.80000000000001,7.2
119,Castro,92,BR,1592503069,68,-24.79,-50.01,67.44200000000001,5.0
120,Melilla,0,ES,1592503226,50,35.29,-2.94,80.6,8.2
121,Aykhal,78,RU,1592503227,47,66.0,111.5,59.0,2.0
122,Rawson,57,AR,1592503227,42,-43.3,-65.1,60.00800000000001,10.63
123,Sudislavl',2,RU,1592503227,79,57.88,41.71,61.610000000000085,2.41
124,Severo-Kuril'sk,60,RU,1592503227,87,50.68,156.12,41.54000000000002,3.77
125,Ilulissat,90,GL,1592503121,64,69.22,-51.1,35.6,3.1
126,Ekibastuz,97,KZ,1592503152,59,51.67,75.37,56.48000000000005,6.9
127,Menton,64,FR,1592503228,73,43.78,7.5,73.99400000000009,9.8
128,Zhoucheng,22,CN,1592503228,88,35.91,116.31,62.34800000000003,0.88
129,Mandalgovi,90,MN,1592503228,34,45.76,106.27,69.33200000000002,3.44
130,Faanui,63,PF,1592503228,81,-16.48,-151.75,79.64600000000004,2.3
131,Dul'durga,88,RU,1592503160,72,50.68,113.59,55.292,0.93
132,Bannu,36,PK,1592503177,8,32.99,70.6,101.28200000000002,3.87
133,Pitanga,100,BR,1592502972,69,-24.76,-51.76,68.234,3.54
134,Villa Carlos Paz,35,AR,1592503229,22,-31.42,-64.5,71.99600000000005,1.5
135,Cape Town,0,ZA,1592502968,48,-33.93,18.42,62.6,3.1
136,Ribeira Grande,75,PT,1592503229,72,38.52,-28.7,66.2,5.1
137,Jiuquan,97,CN,1592503229,20,39.74,98.52,73.63399999999999,1.0
138,Saint-Philippe,75,RE,1592503229,73,-21.36,55.77,69.80000000000001,8.2
139,Mogadishu,59,SO,1592503229,81,2.04,45.34,78.7100000000001,7.89
140,Biak,95,ID,1592503230,82,-0.91,122.88,77.27000000000007,3.15
141,George Town,20,MY,1592503230,79,5.41,100.34,84.2,1.5
142,Cidreira,81,BR,1592503230,66,-30.18,-50.21,73.74199999999999,3.99
143,Bud,1,US,1592503230,50,39.45,-86.18,82.00400000000005,2.1
144,Kostomuksha,100,RU,1592503230,89,64.57,30.58,64.5260000000001,2.62
145,Santa Isabel Rio Negro,52,BR,1592502957,91,-0.41,-65.02,81.75200000000008,2.07
146,Asău,87,RO,1592503231,88,46.43,26.4,64.00400000000005,0.75
147,Nicoya,75,CR,1592503202,66,10.15,-85.45,87.80000000000001,2.6
148,Port Alfred,0,ZA,1592503231,75,-33.59,26.89,59.0,2.68
149,Rehoboth,0,NA,1592503231,38,-23.32,17.08,56.37200000000004,3.78
150,Cabo San Lucas,40,MX,1592503231,58,22.89,-109.91,93.2,1.5
151,Krasnaya Polyana,0,RU,1592503231,72,56.24,51.14,53.00600000000003,1.69
152,Hambantota,88,LK,1592502935,83,6.12,81.12,81.78800000000004,6.9
153,Saint George,1,US,1592502967,14,37.1,-113.58,75.2,3.6
154,Cota,75,CO,1592503232,67,4.81,-74.1,62.6,2.6
155,Kapaa,90,US,1592503232,88,22.08,-159.32,77.0,4.6
156,Mergen,95,CN,1592503232,86,49.18,125.22,55.814000000000036,2.35
157,Dobryanka,0,RU,1592503232,58,58.46,56.42,55.400000000000006,1.0
158,Thompson,90,CA,1592503168,93,55.74,-97.86,35.6,6.2
159,Taperoá,45,BR,1592503233,59,-7.21,-36.83,80.45600000000003,7.14
160,Hōfu,75,JP,1592503233,100,34.05,131.57,66.99199999999999,0.5
161,Neuquén,100,AR,1592503155,41,-38.95,-68.06,57.2,3.6
162,Kavieng,2,PG,1592503233,75,-2.57,150.8,82.14800000000002,1.77
163,Kaeo,2,NZ,1592503233,3,-35.1,173.78,46.99400000000007,0.89
164,Sobolevo,2,RU,1592503233,79,54.43,31.9,71.24000000000002,2.07
165,Bestöbe,13,KZ,1592503234,63,52.5,73.1,51.8,4.12
166,Syracuse,2,IT,1592502939,73,37.09,15.28,78.80000000000001,3.6
167,Brae,8,GB,1592503234,93,60.4,-1.35,53.6,3.6
168,Lorengau,41,PG,1592503234,75,-2.02,147.27,83.174,3.81
169,Carnarvon,0,AU,1592503234,72,-24.87,113.63,60.8,5.7
170,Coquimbo,100,CL,1592503234,67,-29.95,-71.34,60.8,4.1
171,Morón,43,AR,1592503234,65,-34.65,-58.62,66.99199999999999,2.24
172,Yinchuan,78,CN,1592503235,20,38.47,106.27,78.00800000000001,4.02
173,Fatezh,6,RU,1592503235,50,52.09,35.86,78.80000000000001,4.0
174,Te Anau,37,NZ,1592503235,96,-45.42,167.72,32.05400000000005,0.55
175,Sri Aman,44,MY,1592503235,100,1.24,111.46,77.0,0.51
176,Port Blair,76,IN,1592503235,84,11.67,92.75,82.94000000000003,5.35
177,Longyearbyen,75,SJ,1592503235,65,78.22,15.64,44.6,2.6
178,Jingdezhen,96,CN,1592503235,95,29.29,117.21,71.61800000000008,1.08
179,Richards Bay,96,ZA,1592503236,81,-28.78,32.04,58.98200000000001,0.79
180,Pisco,90,PE,1592503236,77,-13.7,-76.22,64.99400000000009,1.0
181,Bengkulu,100,ID,1592503236,89,-3.8,102.27,76.40600000000003,2.3
182,Lisala,58,CD,1592503236,61,2.15,21.52,77.46800000000009,0.41
183,Arman',99,RU,1592503236,89,59.7,150.17,48.866000000000014,0.58
184,Avera,90,US,1592503160,51,33.19,-82.53,80.6,2.6
185,Port Elizabeth,0,ZA,1592503206,77,-33.92,25.57,59.0,3.1
186,Geraldton,10,AU,1592503136,81,-28.77,114.6,51.8,2.6
187,Ukmerge,75,LT,1592503237,73,55.25,24.75,78.00800000000001,1.0
188,Ettlingen,50,DE,1592503237,46,48.94,8.41,73.99400000000009,2.6
189,Linhares,36,BR,1592503148,69,-19.39,-40.07,76.82000000000006,2.55
190,Nyurba,61,RU,1592503237,96,63.28,118.33,50.46800000000009,1.66
191,Airai,91,TL,1592502948,100,-8.93,125.41,57.68600000000007,1.86
192,Mamburao,100,PH,1592503237,81,13.25,120.67,77.93600000000006,1.53
193,Mitchell,90,US,1592503237,77,43.71,-98.03,64.4,7.2
194,Chokurdakh,45,RU,1592503238,44,70.63,147.92,73.13000000000005,3.83
195,San Patricio,20,MX,1592502948,66,19.22,-104.7,86.0,5.1
196,Poum,98,NC,1592503238,76,-20.23,164.02,74.26400000000004,7.4
197,Port-Gentil,75,GA,1592503238,83,-0.72,8.78,77.0,4.6
198,Tasiilaq,100,GL,1592503238,75,65.61,-37.64,42.8,20.1
199,Esperance,40,AU,1592503239,87,-33.87,121.9,48.2,6.2
200,Chicama,54,PE,1592503239,58,-7.84,-79.15,73.72400000000002,4.79
201,Bandundu Province,74,CD,1592503239,40,-3.32,17.37,77.48600000000008,1.47
202,Atar,0,MR,1592503239,13,20.52,-13.05,105.58399999999999,7.55
203,Coos Bay,1,US,1592503239,77,43.37,-124.22,73.99400000000009,5.7
204,Guerrero Negro,6,MX,1592503239,56,27.98,-114.06,70.52000000000007,6.2
205,Port Hardy,90,CA,1592503213,87,50.7,-127.42,55.400000000000006,2.1
206,Goundam,75,ML,1592503240,14,16.41,-3.67,106.62800000000007,3.58
207,Tiznit Province,3,MA,1592503240,54,29.58,-9.5,68.77400000000002,5.84
208,Dedza,52,MW,1592503240,100,-14.38,34.33,50.19800000000002,1.71
209,Pudozh,78,RU,1592503240,63,61.81,36.53,68.88200000000002,2.9
210,Wuwei,62,CN,1592503240,36,37.93,102.64,73.00400000000005,3.14
211,Hualmay,46,PE,1592503241,66,-11.1,-77.61,68.64800000000002,4.13
212,Alofi,48,NU,1592503241,83,-19.06,-169.92,71.6,4.6
213,Svetlaya,89,RU,1592503241,88,46.54,138.33,49.58600000000007,2.5
214,Drumheller,49,CA,1592503057,53,51.46,-112.71,60.00800000000001,1.45
215,Pangnirtung,75,CA,1592502966,75,66.15,-65.71,41.0,8.7
216,Champerico,40,GT,1592503180,70,14.3,-91.92,86.0,2.43
217,Júlio de Castilhos,75,BR,1592503241,57,-29.23,-53.68,80.6,7.2
218,Honningsvåg,75,NO,1592503241,81,70.98,25.97,44.6,8.7
219,Ponta do Sol,20,PT,1592503242,64,32.67,-17.1,73.4,5.1
220,Vestmannaeyjar,75,IS,1592503242,76,63.44,-20.27,50.0,9.3
221,Loandjili,20,CG,1592503242,83,-4.76,11.86,77.0,3.1
222,Melbu,13,NO,1592503242,58,68.5,14.83,55.400000000000006,8.2
223,Tibacuy,71,CO,1592503242,68,4.35,-72.46,83.40800000000002,0.71
224,Isangel,4,VU,1592503242,82,-19.55,169.27,72.1760000000001,5.39
225,Petrovsk-Zabaykal'skiy,64,RU,1592503243,65,51.27,108.84,53.88800000000005,0.75
226,Tautira,75,PF,1592503243,94,-17.73,-149.15,77.0,3.6
227,Lüderitz,0,NA,1592503243,19,-26.65,15.16,80.6,1.0
228,Lagoa,26,PT,1592503243,88,39.05,-27.98,65.12000000000006,6.44
229,Koidu,98,SL,1592503243,91,8.42,-10.83,78.60200000000009,1.47
230,Kavaratti,100,IN,1592503243,79,10.57,72.64,84.75800000000001,6.77
231,Santa Cruz de La Palma,40,ES,1592503244,73,28.68,-17.76,75.2,6.2
232,Ankazoabo,0,MG,1592503244,54,-22.28,44.52,64.36400000000003,4.52
233,Bonavista,98,CA,1592503244,77,48.65,-53.11,53.83399999999999,3.57
234,San Cristobal,40,VE,1592503244,55,7.77,-72.22,87.80000000000001,5.1
235,Burns Lake,100,CA,1592503244,51,54.23,-125.75,61.592,2.01
236,Los Llanos de Aridane,40,ES,1592503039,73,28.66,-17.92,75.2,6.2
237,Kamenka,1,RU,1592503245,77,51.32,42.77,71.99600000000005,1.34
238,Tessalit,0,ML,1592503245,7,20.2,1.01,106.37600000000009,3.65
239,Felanitx,40,ES,1592503245,73,39.47,3.15,77.0,2.6
240,Bandarbeyla,64,SO,1592503245,70,9.49,50.81,81.5,14.0
241,Makakilo City,75,US,1592503245,83,21.35,-158.09,77.0,8.13
242,Mâncio Lima,2,BR,1592503245,38,-7.61,-72.9,93.57800000000006,1.03
243,Palana,63,RU,1592503246,99,59.12,159.97,45.03200000000002,0.62
244,Nur-Sultan,75,KZ,1592503246,71,51.18,71.45,55.400000000000006,4.0
245,Sault Ste. Marie,1,CA,1592503030,50,46.52,-84.33,80.6,2.6
246,La Asuncion,46,VE,1592503246,70,11.03,-63.86,86.0,9.3
247,Etchoropo,27,MX,1592503246,32,26.77,-109.67,98.00600000000003,3.58
248,Praia da Vitória,75,PT,1592503178,68,38.73,-27.07,69.80000000000001,4.98
249,Russell,75,US,1592503247,48,32.35,-85.2,82.4,4.1
250,Tambopata,40,PE,1592503247,58,-12.73,-69.18,87.80000000000001,2.6
251,Yangi Marg`ilon,72,UZ,1592503141,43,40.43,71.72,71.6,2.1
252,Outjo,0,NA,1592503247,37,-20.12,16.15,59.684,4.43
253,Huarmey,51,PE,1592503247,66,-10.07,-78.15,69.13399999999999,3.95
254,Westport,40,US,1592503040,78,41.14,-73.36,78.99800000000002,3.1
255,Nizhniy Baskunchak,7,RU,1592503248,22,48.22,46.83,82.34600000000006,3.86
256,Bantry,75,IE,1592503248,82,51.68,-9.45,60.8,3.6
257,East London,0,ZA,1592503248,60,-33.02,27.91,65.19200000000001,6.03
258,Lázaro Cárdenas,0,MX,1592503201,56,17.96,-102.2,87.40400000000005,4.06
259,Chipinge,96,ZW,1592503248,100,-20.19,32.62,51.00800000000001,0.96
260,Klaksvík,97,FO,1592503248,93,62.23,-6.59,50.0,3.6
261,Pastavy,42,BY,1592503249,88,55.12,26.83,70.30400000000006,3.08
262,West Bay,40,KY,1592503249,70,19.37,-81.42,89.6,3.6
263,Beringovskiy,6,RU,1592503249,58,63.05,179.32,48.110000000000085,0.18
264,Codrington,100,AU,1592503249,83,-38.27,141.97,50.18000000000004,5.74
265,Egvekinot,9,RU,1592503249,40,66.32,-179.17,55.58000000000004,0.92
266,Ḩasanābād,0,IR,1592503250,16,36.55,61.05,86.0,2.1
267,Mahon,20,ES,1592503250,64,39.89,4.27,73.4,4.6
268,Temecula,90,US,1592503152,82,33.49,-117.15,66.99199999999999,3.32
269,Price,1,US,1592503250,23,39.6,-110.81,62.6,2.1
270,Usinsk,65,RU,1592503250,66,65.99,57.53,41.791999999999994,3.06
271,Sand,100,DE,1592503250,32,50.0,10.6,69.99800000000002,1.13
272,Marsh Harbour,99,BS,1592503250,71,26.54,-77.06,82.45400000000006,5.1
273,Buala,12,SB,1592503251,79,-8.14,159.59,80.20400000000006,1.97
274,Vila Velha,20,BR,1592503211,69,-20.33,-40.29,77.0,3.6
275,Muros,2,ES,1592503251,65,42.78,-9.06,64.99400000000009,8.05
276,Batemans Bay,7,AU,1592503251,100,-35.72,150.18,37.004000000000055,2.23
277,Creel,38,MX,1592503251,27,27.75,-107.63,75.434,3.83
278,Souillac,75,MU,1592502968,68,-20.52,57.52,71.6,5.7
279,Haines Junction,100,CA,1592503251,48,60.75,-137.51,60.71000000000008,0.31
280,Dunedin,73,NZ,1592503252,81,-45.87,170.5,42.998000000000026,1.34
281,Littleton,40,US,1592503252,36,39.61,-105.02,68.0,5.7
282,Mount Gambier,100,AU,1592502961,76,-37.83,140.77,50.0,8.2
283,Dzaoudzi,47,YT,1592503252,65,-12.79,45.27,78.80000000000001,5.7
284,Ahipara,18,NZ,1592503252,81,-35.17,173.17,50.37800000000007,2.33
285,Ambon City,13,ID,1592503252,13,-3.7,128.18,80.00600000000003,4.99
286,Yulara,0,AU,1592503253,42,-25.24,130.99,44.6,2.1
287,Safi,1,MA,1592503253,74,32.3,-9.24,70.05200000000008,9.09
288,Abu Samrah,0,SY,1592503253,58,35.3,37.18,70.28600000000007,8.83
289,Bānswāda,99,IN,1592503253,82,18.38,77.88,77.558,4.74
290,Port Hedland,90,AU,1592503254,100,-20.32,118.57,62.6,2.1
291,Eureka,75,US,1592503114,93,40.8,-124.16,60.998000000000026,2.6
292,Lufkin,20,US,1592503254,52,31.34,-94.73,93.00200000000008,5.1
293,Nemuro,47,JP,1592503254,95,43.32,145.57,52.82600000000009,3.09
294,Vytegra,69,RU,1592503254,69,61.01,36.45,68.99000000000002,4.07
295,Pavlodar,75,KZ,1592503254,51,52.3,76.95,60.8,5.0
296,Sokur,75,RU,1592503255,72,55.21,83.32,64.4,8.0
297,Onda,31,ES,1592503255,84,39.97,-0.25,69.00800000000001,2.68
298,Muroran,48,JP,1592503255,88,42.32,140.99,58.78399999999999,2.23
299,Porto Walter,0,BR,1592503121,36,-8.27,-72.74,96.56600000000002,0.64
300,Bubaque,4,GW,1592503255,80,11.28,-15.83,82.04000000000002,5.54
301,Chui,40,UY,1592503255,67,-33.7,-53.46,67.53200000000001,6.77
302,Batagay-Alyta,0,RU,1592503255,54,67.8,130.41,60.314000000000036,1.11
303,Shimoda,100,JP,1592503169,92,34.67,138.95,59.0,5.82
304,Bathsheba,40,BB,1592503256,70,13.22,-59.52,87.80000000000001,8.7
305,Hong Kong,4,HK,1592503125,74,22.29,114.16,84.00200000000008,2.24
306,Medzilaborce,99,SK,1592503256,86,49.27,21.9,62.00600000000003,0.82
307,Nome,1,US,1592503256,63,64.5,-165.41,60.998000000000026,4.1
308,Cherskiy,7,RU,1592503256,41,68.75,161.3,65.26400000000004,3.46
309,Makhachkala,99,RU,1592503256,64,42.98,47.5,73.4,3.0
310,Oktyabr'skoye,100,RU,1592503257,88,43.06,44.74,64.4,2.0
311,Banda Aceh,76,ID,1592503257,76,5.56,95.32,80.65400000000005,2.71
312,Dutlwe,0,BW,1592503257,48,-23.98,23.9,51.530000000000044,3.79
313,Taoudenni,17,ML,1592503257,6,22.68,-3.98,112.87400000000001,5.06
314,Neryungri,91,RU,1592503257,75,56.67,124.65,53.38399999999999,1.94
315,Dali,100,CN,1592503257,81,25.7,100.18,63.66200000000006,1.99
316,Tateyama,100,JP,1592503257,99,34.98,139.87,68.0,3.46
317,Gillette,75,US,1592503258,48,44.29,-105.5,62.6,9.8
318,Ahtopol,49,BG,1592503258,78,42.1,27.95,73.4,2.6
319,Leh,33,IN,1592503049,40,34.17,77.58,53.76200000000006,2.42
320,Anadyr,59,RU,1592503258,67,64.75,177.48,57.2,0.85
321,Mount Darwin,47,ZW,1592503258,80,-16.77,31.58,57.992,1.72
322,La Ronge,75,CA,1592503258,43,55.1,-105.28,55.400000000000006,6.7
323,Mackenzie,1,CA,1592503258,52,55.3,-123.17,64.4,4.6
324,Abadan,2,TM,1592503259,18,38.05,58.21,87.80000000000001,6.2
325,São Filipe,0,CV,1592502975,57,14.9,-24.5,82.54400000000007,5.62
326,Hancheng,8,CN,1592503259,82,32.52,112.35,71.76200000000006,2.98
327,Polyany,81,RU,1592503250,50,54.71,39.82,75.99199999999999,2.24
328,Okha,100,RU,1592503189,97,53.57,142.95,39.38000000000004,4.04
329,Dhidhdhoo,100,MV,1592503259,78,6.88,73.1,84.308,4.94
330,Thayetmyo,100,MM,1592503259,92,19.32,95.18,76.208,3.51
331,Omboué,76,GA,1592503259,88,-1.57,9.26,73.14800000000002,3.88
332,Sovetskiy,56,RU,1592503260,60,61.36,63.58,44.69000000000002,1.85
333,Uinskoye,7,RU,1592503260,74,56.88,56.58,46.67000000000006,1.42
334,Ormara,9,PK,1592503260,84,25.21,64.64,84.66800000000009,3.38
335,Aswān,21,EG,1592503260,11,24.09,32.91,92.066,7.06
336,Yen Bai,63,VN,1592503260,87,21.7,104.87,79.41200000000006,0.16
337,Jalu,0,LY,1592503261,20,29.03,21.55,85.78399999999999,2.63
338,George,0,ZA,1592503261,54,-33.96,22.46,59.0,0.5
339,Bariloche,75,AR,1592503261,81,-41.15,-71.31,42.8,6.2
340,Puerto Madryn,57,AR,1592503141,42,-42.77,-65.04,60.026000000000096,10.72
341,Kruisfontein,0,ZA,1592503262,44,-34.0,24.73,57.524000000000015,2.57
342,Ubari,0,LY,1592503207,11,26.59,12.78,89.85200000000009,4.08
343,Mountrath,97,IE,1592503262,93,53.0,-7.47,62.99600000000005,1.79
344,Todos Santos,42,MX,1592503262,80,23.45,-110.22,71.00600000000003,2.68
345,Okhotsk,52,RU,1592503262,95,59.38,143.3,43.754000000000055,1.8
346,Salinópolis,76,BR,1592503084,81,-0.61,-47.36,82.92200000000004,5.17
347,Heyang,98,CN,1592503263,92,26.1,107.47,70.39400000000008,0.55
348,Kannur,99,IN,1592503009,85,11.87,75.36,79.358,0.5
349,Sola,94,VU,1592503263,78,-13.88,167.55,79.64600000000004,8.89
350,Daru,92,PG,1592503263,84,-9.08,143.21,78.33200000000002,7.71
351,Yulin,48,CN,1592503263,93,22.63,110.15,77.36000000000008,1.99
352,Provideniya,11,RU,1592503263,56,64.38,-173.3,56.66000000000008,1.5
353,Hachinohe,90,JP,1592503263,100,40.5,141.5,59.0,1.0
354,Labytnangi,23,RU,1592503263,72,66.66,66.42,39.110000000000085,4.2
355,Houma,1,US,1592503063,43,29.6,-90.72,91.99400000000009,2.6
356,Ust'ye,26,RU,1592503264,77,59.63,39.74,62.924000000000014,2.97
357,Tonj,100,SS,1592503264,91,7.27,28.68,72.64400000000008,0.69
358,Husavik,4,IS,1592503121,51,66.04,-17.34,59.0,3.1
359,Padang,100,ID,1592503264,77,-0.95,100.35,78.63800000000005,1.87
360,Kiunga,76,PG,1592503264,98,-6.12,141.29,72.69800000000004,0.85
361,Ternate,98,ID,1592503265,80,0.8,127.4,80.69000000000003,1.81
362,Nelson Bay,40,AU,1592503265,100,-32.72,152.15,50.0,2.6
363,Sitka,90,US,1592503265,87,57.05,-135.33,51.8,4.6
364,Tura,100,IN,1592503265,98,25.52,90.22,74.62400000000002,2.37
365,Khvoynaya,52,RU,1592503265,91,58.9,34.53,70.32200000000003,2.39
366,Naze,96,JP,1592503265,100,28.37,129.48,78.80000000000001,5.1
367,Zhigansk,38,RU,1592503265,64,66.77,123.37,59.27000000000007,3.57
368,Berlevåg,20,NO,1592503266,71,70.86,29.09,50.0,5.7
369,Vozrozhdeniye,9,RU,1592503266,53,44.55,38.21,75.99199999999999,0.89
370,Nālūt,0,LY,1592503266,10,30.33,10.85,93.52400000000002,4.55
371,Mnogovershinnyy,100,RU,1592503157,99,53.94,139.92,35.94199999999999,1.34
372,Ginir,35,ET,1592503266,97,7.13,40.7,57.83000000000004,2.46
373,Coleraine,40,GB,1592503266,64,55.13,-6.67,71.6,3.1
374,Bamiantong,0,CN,1592503266,90,44.93,130.53,47.06600000000001,0.94
375,Menzel Salem,75,TN,1592503267,9,35.86,8.48,93.2,3.1
376,Kumul,8,CN,1592503267,23,42.8,93.45,83.80400000000006,8.28
377,Vostok,86,RU,1592503267,100,46.49,135.88,46.04000000000002,0.66
378,Goedereede,82,NL,1592503267,75,51.82,3.98,66.99199999999999,2.44
379,Sangar,42,RU,1592503267,53,63.92,127.47,59.09000000000002,1.54
380,São Paulo de Olivença,29,BR,1592503268,53,-3.38,-68.87,89.76200000000006,1.11
381,Saldanha,0,ZA,1592503268,51,-33.01,17.94,62.6,2.1
382,Concordia,46,AR,1592503024,78,-31.39,-58.02,57.992,2.68
383,Cloquet,100,US,1592503268,54,46.72,-92.46,78.80000000000001,5.1
384,Arlit,8,NE,1592503268,8,18.74,7.39,101.78600000000007,3.5
385,Moura,20,PT,1592503269,34,38.14,-7.45,78.80000000000001,5.7
386,Tari,85,NG,1592503269,38,12.41,4.49,94.15400000000005,3.47
387,Anuradhapura,96,LK,1592503269,83,8.36,80.42,79.62800000000007,4.26
388,Kangaatsiaq,11,GL,1592503269,81,68.31,-53.46,37.49000000000002,5.39
389,Dingle,100,PH,1592503161,92,11.0,122.67,76.29800000000003,2.57
390,Alyangula,1,AU,1592503269,100,-13.85,136.42,68.0,4.46
391,Tha Maka,100,TH,1592503269,82,13.9,99.77,89.99600000000005,2.25
392,Zhukovka,3,RU,1592503269,81,53.53,33.73,70.05200000000008,2.57
393,Jutaí,52,BR,1592503270,52,-5.18,-68.9,89.67200000000004,1.3
394,Portland,75,US,1592503154,63,45.52,-122.68,66.99199999999999,3.6
395,Lyubinskiy,40,RU,1592503270,61,55.15,72.69,50.0,3.0
396,Kikwit,35,CD,1592503270,36,-5.04,18.82,74.67800000000007,0.75
397,Luxor,0,EG,1592503270,29,25.7,32.64,91.4,3.1
398,Romitan,10,UZ,1592503270,31,39.93,64.38,73.4,3.1
399,Duminichi,0,RU,1592503271,87,53.93,35.11,68.93600000000006,1.85
400,Takefu,90,JP,1592503271,100,35.9,136.17,66.2,1.5
401,Iqaluit,90,CA,1592503136,56,63.75,-68.51,42.8,2.6
402,Charters Towers,23,AU,1592503271,93,-20.1,146.27,58.51400000000004,4.07
403,Krasnovishersk,0,RU,1592503271,62,60.41,57.08,44.61800000000009,1.24
404,Pedasí,74,PA,1592503271,71,7.53,-80.03,84.21800000000009,2.0
405,Moche,47,PE,1592503084,75,-8.17,-79.01,67.37000000000006,4.79
406,Cayenne,75,GF,1592503199,94,4.93,-52.33,78.80000000000001,4.46
407,Dalbandin,0,PK,1592503272,10,28.89,64.41,90.57200000000003,5.96
408,Rabo de Peixe,75,PT,1592503272,77,37.8,-25.58,66.2,6.2
409,San Jerónimo,43,PE,1592503272,40,-11.95,-75.28,62.61800000000009,0.67
410,Bodden Town,40,KY,1592503272,70,19.28,-81.25,89.6,3.6
411,Edd,93,ER,1592503273,59,13.93,41.69,88.142,3.15
412,Marawi,98,PH,1592503273,96,8.0,124.29,73.99400000000009,1.79
413,Qorveh,0,IR,1592503273,24,35.17,47.8,66.38000000000005,2.19
414,Assiut,0,EG,1592503273,27,27.18,31.18,89.6,5.7
415,Shahreza,17,IR,1592503273,14,32.03,51.88,81.69800000000004,1.47
416,Il’inskiy,75,RU,1592503273,69,55.62,38.12,80.00600000000003,2.0
417,Pontes e Lacerda,64,BR,1592503274,36,-15.23,-59.34,89.85200000000009,2.82
418,Srednekolymsk,61,RU,1592503274,41,67.45,153.68,73.97600000000008,1.6
419,Aklavik,75,CA,1592503134,81,68.22,-135.01,51.8,1.5
420,Foz do Iguaçu,11,BR,1592503116,57,-25.55,-54.59,80.6,6.7
421,Gari,52,RU,1592503274,66,59.43,62.35,43.79000000000002,1.25
422,Tarko-Sale,98,RU,1592503274,69,64.92,77.78,42.008,5.88
423,Korla,40,CN,1592503274,45,41.76,86.15,84.00200000000008,8.31
424,Cockburn Town,40,TC,1592503275,62,21.46,-71.14,87.80000000000001,6.7
425,Shelburne,20,CA,1592503262,32,44.08,-80.2,84.2,1.5
426,Hasaki,75,JP,1592503275,93,35.73,140.83,66.00200000000008,3.1
427,San Quintín,81,MX,1592503275,61,30.48,-115.95,66.70400000000006,4.75
428,Kieta,1,PG,1592503275,81,-6.22,155.63,78.96200000000006,1.65
429,Sokoni,75,TZ,1592503275,65,-6.43,39.55,80.6,6.2
430,Baruun-Urt,62,MN,1592503276,64,46.68,113.28,64.76000000000008,3.9
431,Yerbogachën,20,RU,1592503276,64,61.28,108.01,51.49400000000007,0.86
432,San Jose,0,US,1592503046,18,37.34,-121.89,86.0,0.89
433,Constitución,100,CL,1592503042,83,-35.33,-72.42,55.72400000000002,10.14
434,Chara,100,RU,1592503276,85,56.91,118.26,50.16200000000006,1.22
435,Ortigueira,95,BR,1592503261,62,-24.21,-50.95,71.2760000000001,3.38
436,Cam Ranh,20,VN,1592503277,74,11.92,109.16,86.0,0.5
437,Melville,40,US,1592503061,69,40.79,-73.42,78.00800000000001,5.1
438,Fare,59,PF,1592503277,77,-16.7,-151.02,80.58200000000002,1.59
439,Lerwick,19,GB,1592503277,93,60.15,-1.15,53.6,5.1
440,Smidovich,14,RU,1592503277,93,48.6,133.82,45.68000000000004,2.17
441,Litovko,77,RU,1592503277,87,49.24,135.17,47.516000000000005,1.73
442,Lewiston,1,US,1592503166,35,44.1,-70.21,89.99600000000005,3.1
443,Sistranda,20,NO,1592503278,67,63.73,8.83,62.6,6.7
444,Båtsfjord,40,NO,1592503278,66,70.63,29.72,50.0,3.6
445,Salalah,75,OM,1592503278,79,17.02,54.09,86.0,3.1
446,Bristol,1,US,1592503251,51,41.83,-71.17,84.99199999999999,4.1
447,Plettenberg Bay,0,ZA,1592503278,44,-34.05,23.37,64.61600000000001,3.64
448,Praia,0,CV,1592503278,51,14.92,-23.51,86.0,12.9
449,Tocopilla,31,CL,1592503278,50,-22.09,-70.2,69.42200000000004,1.45
450,Saint-Pierre,75,RE,1592503279,73,-21.34,55.48,69.80000000000001,8.2
451,Comodoro Rivadavia,100,AR,1592503272,43,-45.87,-67.5,55.400000000000006,9.3
452,Ft. Pierce,75,US,1592503175,94,27.45,-80.33,82.00400000000005,5.7
453,Léo,18,BF,1592503279,48,11.1,-2.1,89.79800000000003,4.01
454,Caravelas,61,BR,1592503279,87,-17.71,-39.25,74.75,3.91
455,Nerchinskiy Zavod,29,RU,1592503279,88,51.31,119.61,52.28600000000007,0.25
456,Moree,4,AU,1592503280,81,-29.47,149.85,51.8,4.6
457,Vertientes,40,CU,1592503280,70,21.26,-78.15,87.80000000000001,4.6
458,Riviere-au-Renard,20,CA,1592503280,51,49.0,-64.4,82.4,3.1
459,Veinticinco de Mayo,24,AR,1592503280,49,-35.43,-60.17,66.99199999999999,1.79
460,Am Timan,65,TD,1592503280,60,11.03,20.28,82.31000000000009,6.66
461,Key Largo,87,US,1592503280,1,25.09,-80.45,84.99199999999999,0.45
462,Bilibino,28,RU,1592503281,45,68.05,166.44,65.37200000000004,2.63
463,Mpika,9,ZM,1592503281,71,-11.83,31.45,55.36400000000003,3.23
464,Timelkam,98,AT,1592503281,54,48.0,13.61,66.99199999999999,1.79
465,Khandyga,66,RU,1592503281,88,62.67,135.6,54.806000000000026,1.1
466,Dauphin,90,CA,1592503083,76,51.15,-100.05,51.8,3.6
467,Seoul,90,KR,1592502912,83,37.57,126.98,73.4,2.6
468,Vardø,40,NO,1592503281,75,70.37,31.11,46.4,9.3
469,Tran,40,BG,1592503282,49,42.84,22.65,73.4,3.1
470,Ugoofaaru,92,MV,1592503282,75,5.67,73.0,84.23600000000008,2.73
471,Maksatikha,70,RU,1592503282,92,57.8,35.88,69.54800000000003,2.34
472,Zeya,86,RU,1592503282,64,53.75,127.27,55.77800000000006,1.19
473,Sindhnūr,97,IN,1592503282,63,15.78,76.77,82.49000000000002,5.83
474,Tommot,99,RU,1592503282,83,58.96,126.29,52.62800000000007,0.38
475,Mirny,100,RU,1592503208,71,62.54,113.96,55.400000000000006,3.0
476,Santa Cruz de la Sierra,40,BO,1592503064,58,-17.8,-63.17,84.2,10.8
477,Zliten,0,LY,1592503283,34,32.47,14.57,84.45200000000008,3.84
478,La Rioja,90,ES,1592503283,53,42.25,-2.5,71.6,2.1
479,Bela,97,IN,1592503283,74,25.93,81.98,86.684,3.66
480,São Domingos do Maranhão,6,BR,1592503283,49,-5.58,-44.39,85.208,3.2
481,Kjøllefjord,75,NO,1592503283,87,70.95,27.35,44.6,5.7
482,Dinslaken,97,DE,1592503284,60,51.57,6.73,75.00200000000008,1.91
483,Port Macquarie,96,AU,1592503284,97,-31.43,152.92,53.00600000000003,1.6
484,Waddān,0,LY,1592503284,14,29.16,16.14,91.86800000000008,4.32
485,Berbera,82,SO,1592503284,41,10.44,45.01,94.208,6.08
486,Malayal,100,PH,1592503284,78,7.21,121.94,80.40200000000007,1.45
487,Jagdalpur,90,IN,1592503284,90,19.07,82.03,74.91200000000006,2.99
488,Amahai,28,ID,1592503284,97,-3.33,128.92,82.00400000000005,2.06
489,Stolin,45,BY,1592503285,84,51.89,26.85,68.45,3.09
490,Selma,0,US,1592502991,30,36.57,-119.61,86.0,1.08
491,Cairns,90,AU,1592503244,94,-16.92,145.77,69.99800000000002,5.7
492,Mgandu,3,TZ,1592503285,61,-5.95,34.13,62.40200000000008,2.04
493,Marrakesh,75,MA,1592503276,44,31.63,-8.01,80.6,3.6
494,Caxias,20,PT,1592503285,60,38.7,-9.28,68.0,5.7
495,Morden,90,CA,1592503144,100,49.19,-98.1,69.80000000000001,4.6
496,Adrar,52,MR,1592503177,12,20.5,-10.07,105.08000000000004,6.95
497,Shilovo,73,RU,1592503286,66,54.32,40.87,71.00600000000003,2.67
498,Kodīnar,31,IN,1592503286,80,20.79,70.7,84.74000000000002,5.89
499,Mareeba,90,AU,1592503286,94,-17.0,145.43,69.99800000000002,5.7
500,Hirara,100,JP,1592503286,86,24.8,125.28,83.78600000000007,10.44
501,Quatre Cocos,75,MU,1592503286,68,-20.21,57.76,71.6,5.7
502,Massakory,7,TD,1592503286,34,13.0,15.73,94.6760000000001,4.66
503,Kerema,48,PG,1592503287,88,-7.96,145.78,76.85600000000002,0.91
504,Qeshm,0,IR,1592503287,70,26.96,56.27,91.4,2.1
505,Havre-St-Pierre,1,CA,1592503156,60,50.23,-63.6,75.2,4.6
506,Manokwari,37,ID,1592503287,70,-0.87,134.08,79.592,2.03
507,Atambua,91,ID,1592503287,89,-9.11,124.89,71.52800000000008,2.81
508,Valdivia,75,CL,1592503287,87,-39.81,-73.25,57.2,6.7
509,Afyonkarahisar,69,TR,1592503287,74,38.75,30.67,60.998000000000026,3.2
510,North Bend,1,US,1592503287,77,43.41,-124.22,73.99400000000009,5.7
511,Hargeisa,94,SO,1592503288,59,9.56,44.06,72.64400000000008,11.68
512,Opuwo,0,NA,1592503288,41,-18.06,13.84,60.96200000000006,3.6
513,Tual,73,ID,1592503288,84,-5.67,132.75,80.79800000000003,9.76
514,Staryy Nadym,25,RU,1592503288,67,65.61,72.68,40.64000000000002,3.35
515,Kendari,79,ID,1592503288,93,-3.94,122.5,74.15600000000003,1.86
516,Vao,95,NC,1592503114,77,-22.67,167.48,71.78000000000004,6.7
517,Huai'an,28,CN,1592503288,93,33.59,119.02,62.33000000000004,1.91
518,Vavoua,78,CI,1592503289,80,7.38,-6.48,78.51200000000006,2.94
519,Wanning,2,CN,1592503289,89,18.8,110.4,81.55400000000006,4.45
520,Togur,100,RU,1592503289,95,58.36,82.83,49.29800000000003,5.44
521,São Félix do Xingu,60,BR,1592503289,46,-6.64,-51.99,87.44000000000003,3.59
522,Uberlândia,21,BR,1592503289,52,-18.92,-48.28,74.084,5.31
523,Maroua,80,CM,1592503289,35,10.59,14.32,92.40800000000002,0.84
524,Lieksa,93,FI,1592503289,91,63.32,30.02,63.35600000000003,5.33
525,Emerald,3,AU,1592503290,82,-23.53,148.17,55.400000000000006,3.1
526,Deputatsky,21,RU,1592503290,64,69.3,139.9,64.58000000000004,0.47
527,Krasnyy Luch,97,UA,1592503290,48,48.14,38.94,70.32200000000003,3.98
528,Guiratinga,26,BR,1592503290,43,-16.35,-53.76,84.02000000000007,3.3
529,Bålsta,18,SE,1592503290,49,59.57,17.53,73.99400000000009,1.5
530,Grand-Santi,17,GF,1592503291,60,4.25,-54.38,88.52000000000007,2.04
531,Zirgan,0,RU,1592503291,72,53.22,55.92,52.84400000000008,4.78
532,Helong,65,CN,1592503291,90,42.54,129.0,52.16000000000008,0.47
533,Udayagiri,100,IN,1592503291,86,20.13,84.38,74.3180000000001,2.26
534,Mount Isa,0,AU,1592503184,72,-20.73,139.5,60.8,2.6
535,Härnösand,26,SE,1592503055,64,62.63,17.94,78.99800000000002,2.1
536,Panzhihua,98,CN,1592503291,77,26.59,101.71,73.97600000000008,0.67
537,Fort Nelson,40,CA,1592503208,82,58.81,-122.7,60.8,1.5
538,Oistins,40,BB,1592503292,70,13.07,-59.53,87.80000000000001,8.7
539,Andenes,75,NO,1592503162,81,69.31,16.12,46.4,4.1
540,Ozernovskiy,73,RU,1592503292,89,51.5,156.52,42.54800000000002,1.07
541,Aracati,30,BR,1592503292,63,-4.56,-37.77,85.208,4.36
542,Puerto El Triunfo,40,SV,1592503293,59,13.28,-88.55,91.4,3.12
543,Beloha,10,MG,1592503293,81,-25.17,45.05,63.788000000000046,6.26
544,Ouadda,89,CF,1592503293,91,8.08,22.4,70.934,1.87
545,Norrtälje,29,SE,1592503104,76,59.76,18.7,66.00200000000008,0.45
546,Tutóia,38,BR,1592503293,75,-2.76,-42.27,83.60600000000002,1.81
547,Tucuruí,49,BR,1592503293,55,-3.77,-49.67,88.44800000000004,2.7
548,Ayan,93,RU,1592503293,96,56.45,138.17,41.63000000000004,1.2
549,Newcastleton,81,GB,1592503294,72,55.18,-2.81,60.8,6.7
550,Fort Frances,90,CA,1592503294,78,48.6,-93.4,75.99199999999999,2.6
551,Magán,30,ES,1592503294,18,39.97,-3.93,84.2,5.7
552,Araouane,10,ML,1592503294,6,18.9,-3.53,110.642,3.9
553,Moffat,92,GB,1592503295,75,55.33,-3.45,64.00400000000005,1.34
554,Carauari,73,BR,1592503296,56,-4.88,-66.9,89.18600000000006,0.59
555,Sisimiut,45,GL,1592503298,67,66.94,-53.67,41.75600000000003,8.12
556,Kirensk,15,RU,1592503299,91,57.79,108.11,46.32800000000007,1.29
557,Vila Franca do Campo,75,PT,1592503299,77,37.72,-25.43,66.2,6.2
558,Nantucket,90,US,1592503233,88,41.28,-70.1,71.99600000000005,3.6
